{
  "Panaderia1":{ 
              "nombre":"Panaderia Mantequilla",
              "lat": "3.440639",
              "lng": "-76.534489"
           },
  "Panaderia2":{ 
              "nombre":"AzulPan",
              "lat": "3.439075",
              "lng": "-76.536367"
           },
  "Panaderia3":{ 
            "nombre":"Panceta" ,
            "lat": "3.441164",
            "lng": "-76.533094" 
          },
  "Panaderia4":{ 
            "nombre":"MasaPan111" ,
            "lat": "3.446661",
            "lng": "-76.533771" 
          },
  "Panaderia5":{ 
            "nombre":"RootPanaderia" ,
            "lat": "3.459062",
            "lng": "-76.533128" 
          },        
    "Panaderia6":{ 
            "nombre":"NuevaNoCach" ,
            "lat": "3.453022",
            "lng": "-76.527806"
 
          },
    "Panaderia7":{ 
            "nombre":"ultima",
            "lat": "3.453407",
            "lng": "-76.53514"
 
          }             


}